[{"id": "cZLAslcv5GjWVavKm3ZxDQ", "alias": "west-african-dishes-riverdale", "name": "West African Dishes", "image_url": "https://s3-media4.fl.yelpcdn.com/bphoto/AhBjFcCeS8d8vJaMMx78og/o.jpg", "is_closed": false, "url": "https://www.yelp.com/biz/west-african-dishes-riverdale?adjust_creative=q2CkjCrzf_Z7x-wy1RQ60A&utm_campaign=yelp_api_v3&utm_medium=api_v3_business_search&utm_source=q2CkjCrzf_Z7x-wy1RQ60A", "review_count": 5, "categories": [{"alias": "african", "title": "African"}], "rating": 5.0, "coordinates": {"latitude": 33.57459735795027, "longitude": -84.41539943218231}, "transactions": [], "location": {"address1": "6597 Church St", "address2": "", "address3": null, "city": "Riverdale", "zip_code": "30274", "country": "US", "state": "GA", "display_address": ["6597 Church St", "Riverdale, GA 30274"]}, "phone": "+14044293317", "display_phone": "(404) 429-3317", "distance": 24765.21668790886}, {"id": "MzwJ-_Vg5ekow6DKqjakbw", "alias": "brothers-restaurant-atlanta-2", "name": "Brothers Restaurant", "image_url": "https://s3-media4.fl.yelpcdn.com/bphoto/PY3ZUbZVF0bE6g_TA4oq5Q/o.jpg", "is_closed": false, "url": "https://www.yelp.com/biz/brothers-restaurant-atlanta-2?adjust_creative=q2CkjCrzf_Z7x-wy1RQ60A&utm_campaign=yelp_api_v3&utm_medium=api_v3_business_search&utm_source=q2CkjCrzf_Z7x-wy1RQ60A", "review_count": 2, "categories": [{"alias": "african", "title": "African"}], "rating": 5.0, "coordinates": {"latitude": 33.606391, "longitude": -84.4357011}, "transactions": ["delivery", "pickup"], "location": {"address1": "5461 Riverdale Rd", "address2": null, "address3": null, "city": "Atlanta", "zip_code": "30349", "country": "US", "state": "GA", "display_address": ["5461 Riverdale Rd", "Atlanta, GA 30349"]}, "phone": "+16786046680", "display_phone": "(678) 604-6680", "distance": 28783.492045193547}, {"id": "hVM9MYthDhQeFUMhftUg_Q", "alias": "touray-kunda-cafe-atlanta", "name": "Touray Kunda Cafe", "image_url": "https://s3-media1.fl.yelpcdn.com/bphoto/5k0Vilil_WiqN0EamQlw7A/o.jpg", "is_closed": false, "url": "https://www.yelp.com/biz/touray-kunda-cafe-atlanta?adjust_creative=q2CkjCrzf_Z7x-wy1RQ60A&utm_campaign=yelp_api_v3&utm_medium=api_v3_business_search&utm_source=q2CkjCrzf_Z7x-wy1RQ60A", "review_count": 4, "categories": [{"alias": "african", "title": "African"}, {"alias": "bbq", "title": "Barbeque"}], "rating": 5.0, "coordinates": {"latitude": 33.615469, "longitude": -84.471191}, "transactions": ["delivery"], "location": {"address1": "5134 Old National Hwy", "address2": "", "address3": null, "city": "Atlanta", "zip_code": "30349", "country": "US", "state": "GA", "display_address": ["5134 Old National Hwy", "Atlanta, GA 30349"]}, "phone": "+14042286544", "display_phone": "(404) 228-6544", "distance": 31365.90924160381}, {"id": "DavpiHogGrgMpN46bxsx6w", "alias": "buka-2-restaurant-and-lounge-atlanta", "name": "Buka 2 Restaurant & Lounge", "image_url": "https://s3-media1.fl.yelpcdn.com/bphoto/2fzu_3drGjUQxlAoxbom6g/o.jpg", "is_closed": false, "url": "https://www.yelp.com/biz/buka-2-restaurant-and-lounge-atlanta?adjust_creative=q2CkjCrzf_Z7x-wy1RQ60A&utm_campaign=yelp_api_v3&utm_medium=api_v3_business_search&utm_source=q2CkjCrzf_Z7x-wy1RQ60A", "review_count": 38, "categories": [{"alias": "african", "title": "African"}], "rating": 2.5, "coordinates": {"latitude": 33.6066208, "longitude": -84.4349213}, "transactions": ["delivery", "pickup"], "price": "$$", "location": {"address1": "5436 Riverdale Rd", "address2": "", "address3": "", "city": "Atlanta", "zip_code": "30349", "country": "US", "state": "GA", "display_address": ["5436 Riverdale Rd", "Atlanta, GA 30349"]}, "phone": "+16785195443", "display_phone": "(678) 519-5443", "distance": 28746.707011112114}, {"id": "s27OJjzyZuLe2cAUpa395w", "alias": "mama-put-restaurant-fayetteville", "name": "Mama Put Restaurant", "image_url": "https://s3-media3.fl.yelpcdn.com/bphoto/msj862mTiK57bY55wOm-2g/o.jpg", "is_closed": false, "url": "https://www.yelp.com/biz/mama-put-restaurant-fayetteville?adjust_creative=q2CkjCrzf_Z7x-wy1RQ60A&utm_campaign=yelp_api_v3&utm_medium=api_v3_business_search&utm_source=q2CkjCrzf_Z7x-wy1RQ60A", "review_count": 10, "categories": [{"alias": "african", "title": "African"}], "rating": 3.5, "coordinates": {"latitude": 33.512312, "longitude": -84.430294}, "transactions": [], "location": {"address1": "101 Kenwood Rd", "address2": "Ste 28", "address3": "", "city": "Fayetteville", "zip_code": "30214", "country": "US", "state": "GA", "display_address": ["101 Kenwood Rd", "Ste 28", "Fayetteville, GA 30214"]}, "phone": "+16782712011", "display_phone": "(678) 271-2011", "distance": 20018.31281514213}, {"id": "zuEk9L0WD-1WOvr3M-VRpA", "alias": "musulyns-international-restaurant-covington", "name": "Musulyn's International Restaurant", "image_url": "https://s3-media2.fl.yelpcdn.com/bphoto/0dKTmnBYuHRIu6L_kUs2fQ/o.jpg", "is_closed": false, "url": "https://www.yelp.com/biz/musulyns-international-restaurant-covington?adjust_creative=q2CkjCrzf_Z7x-wy1RQ60A&utm_campaign=yelp_api_v3&utm_medium=api_v3_business_search&utm_source=q2CkjCrzf_Z7x-wy1RQ60A", "review_count": 13, "categories": [{"alias": "soulfood", "title": "Soul Food"}, {"alias": "african", "title": "African"}, {"alias": "cocktailbars", "title": "Cocktail Bars"}], "rating": 5.0, "coordinates": {"latitude": 33.604471, "longitude": -83.8734289}, "transactions": ["delivery", "pickup"], "location": {"address1": "6129 US-278 NW", "address2": "Ste 4", "address3": "", "city": "Covington", "zip_code": "30014", "country": "US", "state": "GA", "display_address": ["6129 US-278 NW", "Ste 4", "Covington, GA 30014"]}, "phone": "+14704441135", "display_phone": "(470) 444-1135", "distance": 45227.46431044542}, {"id": "jnkRjphKZMics4d256speA", "alias": "ty-lexine-cuisine-jonesboro", "name": "Ty-Lexine Cuisine", "image_url": "https://s3-media2.fl.yelpcdn.com/bphoto/KQt2AW1J0Gl10I6d9TY6SQ/o.jpg", "is_closed": false, "url": "https://www.yelp.com/biz/ty-lexine-cuisine-jonesboro?adjust_creative=q2CkjCrzf_Z7x-wy1RQ60A&utm_campaign=yelp_api_v3&utm_medium=api_v3_business_search&utm_source=q2CkjCrzf_Z7x-wy1RQ60A", "review_count": 3, "categories": [{"alias": "african", "title": "African"}], "rating": 3.0, "coordinates": {"latitude": 33.5217423706404, "longitude": -84.3627944999892}, "transactions": [], "location": {"address1": "8558 Tara Blvd", "address2": "", "address3": null, "city": "Jonesboro", "zip_code": "30236", "country": "US", "state": "GA", "display_address": ["8558 Tara Blvd", "Jonesboro, GA 30236"]}, "phone": "+16784893185", "display_phone": "(678) 489-3185", "distance": 17282.725187408127}, {"id": "gpOglAl0b1e1JLxdc8Gpdg", "alias": "bamba-cuisine-atlanta", "name": "Bamba Cuisine", "image_url": "https://s3-media1.fl.yelpcdn.com/bphoto/iRqKp8skZYSATPN4XEWWjw/o.jpg", "is_closed": false, "url": "https://www.yelp.com/biz/bamba-cuisine-atlanta?adjust_creative=q2CkjCrzf_Z7x-wy1RQ60A&utm_campaign=yelp_api_v3&utm_medium=api_v3_business_search&utm_source=q2CkjCrzf_Z7x-wy1RQ60A", "review_count": 71, "categories": [{"alias": "senegalese", "title": "Senegalese"}], "rating": 4.0, "coordinates": {"latitude": 33.690039, "longitude": -84.509568}, "transactions": ["delivery", "pickup"], "price": "$$", "location": {"address1": "3700 Campbellton Rd SW", "address2": "suite1", "address3": "", "city": "Atlanta", "zip_code": "30311", "country": "US", "state": "GA", "display_address": ["3700 Campbellton Rd SW", "suite1", "Atlanta, GA 30311"]}, "phone": "+16787059683", "display_phone": "(678) 705-9683", "distance": 40258.59057967477}, {"id": "FuQExkWBNIYRXShoP9eiog", "alias": "moyo-grill-and-bar-restaurant-forest-park", "name": "Moyo Grill & Bar Restaurant", "image_url": "https://s3-media4.fl.yelpcdn.com/bphoto/beh1MbazJ4J_-hCDyQBtYg/o.jpg", "is_closed": false, "url": "https://www.yelp.com/biz/moyo-grill-and-bar-restaurant-forest-park?adjust_creative=q2CkjCrzf_Z7x-wy1RQ60A&utm_campaign=yelp_api_v3&utm_medium=api_v3_business_search&utm_source=q2CkjCrzf_Z7x-wy1RQ60A", "review_count": 13, "categories": [{"alias": "african", "title": "African"}, {"alias": "newamerican", "title": "American (New)"}, {"alias": "seafood", "title": "Seafood"}], "rating": 3.5, "coordinates": {"latitude": 33.61512, "longitude": -84.4012}, "transactions": ["delivery", "pickup"], "location": {"address1": "5116 GA-85", "address2": null, "address3": "", "city": "Forest Park", "zip_code": "30297", "country": "US", "state": "GA", "display_address": ["5116 GA-85", "Forest Park, GA 30297"]}, "phone": "", "display_phone": "", "distance": 28206.20119495082}, {"id": "Ph9CC8gaPyhaeZX3oxTYrg", "alias": "saint-louis-cuisine-atlanta", "name": "Saint-Louis Cuisine", "image_url": "https://s3-media2.fl.yelpcdn.com/bphoto/SEyerBpyIx5scqRoV2PT1g/o.jpg", "is_closed": false, "url": "https://www.yelp.com/biz/saint-louis-cuisine-atlanta?adjust_creative=q2CkjCrzf_Z7x-wy1RQ60A&utm_campaign=yelp_api_v3&utm_medium=api_v3_business_search&utm_source=q2CkjCrzf_Z7x-wy1RQ60A", "review_count": 10, "categories": [{"alias": "senegalese", "title": "Senegalese"}], "rating": 5.0, "coordinates": {"latitude": 33.6003708988768, "longitude": -84.427568118636}, "transactions": ["delivery"], "location": {"address1": "5658 Riverdale Rd", "address2": "Ste V", "address3": null, "city": "Atlanta", "zip_code": "30349", "country": "US", "state": "GA", "display_address": ["5658 Riverdale Rd", "Ste V", "Atlanta, GA 30349"]}, "phone": "+16784897559", "display_phone": "(678) 489-7559", "distance": 27813.715610531824}, {"id": "uNiTLrArIMnexNUG8KZJDQ", "alias": "olyzubbys-kitchen-atlanta", "name": "Olyzubbys Kitchen", "image_url": "https://s3-media3.fl.yelpcdn.com/bphoto/by8VYqDi92qLY1UVXFvn1Q/o.jpg", "is_closed": false, "url": "https://www.yelp.com/biz/olyzubbys-kitchen-atlanta?adjust_creative=q2CkjCrzf_Z7x-wy1RQ60A&utm_campaign=yelp_api_v3&utm_medium=api_v3_business_search&utm_source=q2CkjCrzf_Z7x-wy1RQ60A", "review_count": 8, "categories": [{"alias": "african", "title": "African"}], "rating": 4.0, "coordinates": {"latitude": 33.6238365, "longitude": -84.4744492}, "transactions": ["delivery", "pickup"], "price": "$$", "location": {"address1": "4813 Old National Hwy", "address2": null, "address3": "", "city": "Atlanta", "zip_code": "30337", "country": "US", "state": "GA", "display_address": ["4813 Old National Hwy", "Atlanta, GA 30337"]}, "phone": "+16787935565", "display_phone": "(678) 793-5565", "distance": 32385.630716190582}, {"id": "C9MAykNOCCLt9eN5XriPtg", "alias": "manding-cafe-atlanta", "name": "Manding Cafe", "image_url": "https://s3-media2.fl.yelpcdn.com/bphoto/v6ZbqtZ718qDTZK9HqrZ8w/o.jpg", "is_closed": false, "url": "https://www.yelp.com/biz/manding-cafe-atlanta?adjust_creative=q2CkjCrzf_Z7x-wy1RQ60A&utm_campaign=yelp_api_v3&utm_medium=api_v3_business_search&utm_source=q2CkjCrzf_Z7x-wy1RQ60A", "review_count": 5, "categories": [{"alias": "african", "title": "African"}], "rating": 5.0, "coordinates": {"latitude": 33.6150816, "longitude": -84.47424889999999}, "transactions": ["delivery", "pickup"], "location": {"address1": "5145 Old National Hwy College Park", "address2": "", "address3": "", "city": "Atlanta", "zip_code": "30349", "country": "US", "state": "GA", "display_address": ["5145 Old National Hwy College Park", "Atlanta, GA 30349"]}, "phone": "+16785100911", "display_phone": "(678) 510-0911", "distance": 31490.226351142624}, {"id": "78gpVGATiNZRutpA86whfQ", "alias": "broni-home-taste-restaurant-atlanta", "name": "Broni Home Taste Restaurant", "image_url": "https://s3-media2.fl.yelpcdn.com/bphoto/-NUF-49j2-lNxEO8ZmoOyw/o.jpg", "is_closed": false, "url": "https://www.yelp.com/biz/broni-home-taste-restaurant-atlanta?adjust_creative=q2CkjCrzf_Z7x-wy1RQ60A&utm_campaign=yelp_api_v3&utm_medium=api_v3_business_search&utm_source=q2CkjCrzf_Z7x-wy1RQ60A", "review_count": 22, "categories": [{"alias": "african", "title": "African"}], "rating": 3.5, "coordinates": {"latitude": 33.623836, "longitude": -84.4766979}, "transactions": ["delivery", "pickup"], "location": {"address1": "4841 Old National Hwy", "address2": "", "address3": "", "city": "Atlanta", "zip_code": "30337", "country": "US", "state": "GA", "display_address": ["4841 Old National Hwy", "Atlanta, GA 30337"]}, "phone": "+14049482169", "display_phone": "(404) 948-2169", "distance": 32422.27267705874}, {"id": "K_6zSW1thfudWYnQnSmvSQ", "alias": "nema-kitchen-atlanta", "name": "Nema Kitchen", "image_url": "https://s3-media4.fl.yelpcdn.com/bphoto/8_0KLFKcDu-b2u6orGCO_Q/o.jpg", "is_closed": false, "url": "https://www.yelp.com/biz/nema-kitchen-atlanta?adjust_creative=q2CkjCrzf_Z7x-wy1RQ60A&utm_campaign=yelp_api_v3&utm_medium=api_v3_business_search&utm_source=q2CkjCrzf_Z7x-wy1RQ60A", "review_count": 10, "categories": [{"alias": "african", "title": "African"}], "rating": 3.5, "coordinates": {"latitude": 33.698215, "longitude": -84.483722}, "transactions": ["delivery", "pickup"], "location": {"address1": "2905 Campbellton Rd SW", "address2": null, "address3": "", "city": "Atlanta", "zip_code": "30311", "country": "US", "state": "GA", "display_address": ["2905 Campbellton Rd SW", "Atlanta, GA 30311"]}, "phone": "+14705755505", "display_phone": "(470) 575-5505", "distance": 39869.34902429198}, {"id": "dq1hK8HctLdK43o3wROjlg", "alias": "africa-resturant-and-lounge-riverdale", "name": "Africa Resturant and  Lounge", "image_url": "https://s3-media2.fl.yelpcdn.com/bphoto/VvK79c8Cju_X9IWSNAUxKw/o.jpg", "is_closed": false, "url": "https://www.yelp.com/biz/africa-resturant-and-lounge-riverdale?adjust_creative=q2CkjCrzf_Z7x-wy1RQ60A&utm_campaign=yelp_api_v3&utm_medium=api_v3_business_search&utm_source=q2CkjCrzf_Z7x-wy1RQ60A", "review_count": 16, "categories": [{"alias": "african", "title": "African"}, {"alias": "desserts", "title": "Desserts"}, {"alias": "hookah_bars", "title": "Hookah Bars"}], "rating": 2.5, "coordinates": {"latitude": 33.580859, "longitude": -84.410956}, "transactions": ["delivery", "pickup"], "location": {"address1": "6380 GA 85", "address2": "", "address3": null, "city": "Riverdale", "zip_code": "30274", "country": "US", "state": "GA", "display_address": ["6380 GA 85", "Riverdale, GA 30274"]}, "phone": "+16789615878", "display_phone": "(678) 961-5878", "distance": 25172.03771651674}, {"id": "h18B4BtBXJlyIWCHTmLeng", "alias": "nations-cafe-hapeville", "name": "Nations Cafe", "image_url": "https://s3-media1.fl.yelpcdn.com/bphoto/iR9mMD7nuaZD9Re46L8EOQ/o.jpg", "is_closed": false, "url": "https://www.yelp.com/biz/nations-cafe-hapeville?adjust_creative=q2CkjCrzf_Z7x-wy1RQ60A&utm_campaign=yelp_api_v3&utm_medium=api_v3_business_search&utm_source=q2CkjCrzf_Z7x-wy1RQ60A", "review_count": 8, "categories": [{"alias": "african", "title": "African"}, {"alias": "tradamerican", "title": "American (Traditional)"}], "rating": 2.5, "coordinates": {"latitude": 33.664288, "longitude": -84.408968}, "transactions": ["delivery", "pickup"], "location": {"address1": "3293 Dogwood Dr", "address2": "", "address3": null, "city": "Hapeville", "zip_code": "30354", "country": "US", "state": "GA", "display_address": ["3293 Dogwood Dr", "Hapeville, GA 30354"]}, "phone": "+14042286866", "display_phone": "(404) 228-6866", "distance": 33549.47173073716}]